{
  "albums": [
    { 
      "name": "Fugazi - Repeater",
      "year": 1990,
      "image": "http://cps-static.rovicorp.com/3/JPG_500/MI0000/015/MI0000015663.jpg?partner=allrovi.com",
      "producer": "Ted Niceley",
      "studio": "Inner Ear Studios",
      "lat": 38.8439,
      "long": -77.0895,
      "slogan": "Ultimate day record"
    },
    { 
      "name": "Satyricon - Nemesis Divina",
      "year": 1996,
      "image": "http://cps-static.rovicorp.com/3/JPG_500/MI0004/056/MI0004056459.jpg?partner=allrovi.com",
      "producer": "Sigurd Wongraven",
      "studio": "Waterfall Studio",
      "lat": 59.9197057,
      "long": 10.7439582,
      "slogan": "Great fusion of garage and studio production sounds"
    },
    { 
      "name": "Nas - Illmatic",
      "year": 1994,
      "image": "https://img.discogs.com/EqGQ13tfpuZ7yBqtaFER7hbIxTw=/fit-in/300x300/filters:strip_icc():format(jpeg):mode_rgb():quality(40)/discogs-images/R-219517-1396284346-7382.jpeg.jpg",
      "lat": 40.7127, 
      "long": -74.0059,
      "slogan": "See cover"
    },
    { 
      "name": "Manu Chao - Clandestino",
      "year": 1998,
      "image": "http://cps-static.rovicorp.com/3/JPG_500/MI0002/533/MI0002533780.jpg?partner=allrovi.com",
      "producer": "Renaud Letang",
      "studio": "Studio Koogar Ferber",
      "lat": 48.8673983,
      "long": 2.4081315,
      "slogan": "Should have electronic beats, but computer bug erased them"
    },
    { 
      "name": "NoMeansNo - One",
      "year": 2000,
      "image": "http://cps-static.rovicorp.com/3/JPG_500/MI0000/291/MI0000291870.jpg?partner=allrovi.com",
      "producer": "Nomeansno",
      "studio": "Lemon Loaf Studios",
      "lat": 49.2561055,
      "long": -123.1939531,
      "slogan": "Their least annoying record"
    },
    { 
      "name": "Beck - Stereopathetic Soulmanure",
      "year": 1994,
      "image": "http://cps-static.rovicorp.com/3/JPG_500/MI0001/434/MI0001434223.jpg?partner=allrovi.com",
      "producer": "Tom Grimley",
      "studio": "",
      "lat": 34.0201796,
      "long": -118.6926069,
      "slogan": "Proper lo-fi americana trash"
    },
    { 
      "name": "Pixies - Surfer Rosa",
      "year": 1988,
      "image": "http://cps-static.rovicorp.com/3/JPG_500/MI0002/009/MI0002009636.jpg?partner=allrovi.com",
      "producer": "Steve Albini",
      "studio": "Q Division Studios",
      "lat": 42.3403887,
      "long": -71.0674338,
      "slogan": "Drum room mics were delayed for 20 milliseconds"
    },
    { 
      "name": "Devo - Are We Not Men? We Are Devo!",
      "year": 1978,
      "image": "http://cps-static.rovicorp.com/3/JPG_500/MI0000/924/MI0000924801.jpg?partner=allrovi.com",
      "producer": "Brian Eno",
      "studio": "Conny Plank Studio",
      "lat": 50.855223,
      "long": 7.276962,
      "slogan": "Wasted potential, but legendary material"
    },
    { 
      "name": "Tom Waits - Franks Wild Years",
      "year": 1987,
      "image": "http://cps-static.rovicorp.com/3/JPG_500/MI0001/939/MI0001939058.jpg?partner=allrovi.com",
      "producer": "Tom Waits",
      "studio": "The Sound Factory",
      "lat": 34.0988385,
      "long": -118.3338425,
      "slogan": "High on life"
    },
    { 
      "name": "Slint - Spiderland",
      "year": 1991,
      "image": "http://cps-static.rovicorp.com/3/JPG_500/MI0002/352/MI0002352780.jpg?partner=allrovi.com",
      "producer": "Brian Paulson",
      "studio": "River North Records",
      "lat": 41.8333925,
      "long": -88.0123388,
      "slogan": "More a song than an album"
    },
    { 
      "name": "The Velvet Underground - The Velvet Underground",
      "year": 1969,
      "image": "http://cps-static.rovicorp.com/3/JPG_500/MI0003/811/MI0003811981.jpg?partner=allrovi.com",
      "producer": "The Velvet Underground",
      "studio": "TTG Studios",
      "lat": 34.0973421,
      "long": -118.340488,
      "slogan": "Ultimate night record"
    },
    { 
      "name": "Run the Jewels - Run the Jewels 2",
      "year": 2014,
      "image": "https://upload.wikimedia.org/wikipedia/en/thumb/9/93/RunTheJewelsRTJ2.jpg/220px-RunTheJewelsRTJ2.jpg",
      "producer": "Chris Goss",
      "studio": "Sound City Studios",
      "lat": 34.21702,
      "long": -118.47039,
      "console": "Neve",
      "slogan": "Hardcore hip hop that is not based on trap"
    },
    { 
      "name": "CSS - Cansei de Ser Sexy",
      "year": 2005,
      "image": "http://cps-static.rovicorp.com/3/JPG_500/MI0000/634/MI0000634709.jpg?partner=allrovi.com",
      "producer": "Adriano Cintra",
      "studio": "Jägermeister Bitte",
      "lat": -23.6821604,
      "long": -46.875491,
      "slogan": "Fun and relatable"
    },
    { 
      "name": "The Offspring - Smash",
      "year": 1994,
      "image": "http://cps-static.rovicorp.com/3/JPG_500/MI0000/055/MI0000055281.jpg?partner=allrovi.com",
      "producer": "Thom Wilson",
      "studio": "Track Record",
      "lat": 34.1739,
      "long": -118.379,
      "slogan": "Best-selling independent label album of all time"
    },
    { 
      "name": "Beck - Midnite Vultures",
      "year": 1999,
      "image": "http://cps-static.rovicorp.com/3/JPG_500/MI0001/623/MI0001623000.jpg?partner=allrovi.com",
      "producer": "Beck Hansen",
      "studio": "Soft Studios",
      "lat": 34.0201796,
      "long": -118.6926069,
      "slogan": "Hitting the L.A.'s main nerve"
    },
    { 
      "name": "Dicky B. Hardy - I Whistle - You Dance",
      "year": 1998,
      "image": "https://img.discogs.com/GcrAwgwsIKr39012EppCmmWtZ8M=/fit-in/598x600/filters:strip_icc():format(jpeg):mode_rgb():quality(90)/discogs-images/R-4057074-1353797305-8367.jpeg.jpg",
      "producer": "Aldo Ivančić",
      "studio": "",
      "lat": 46.05108,
      "long": 14.50513,
      "slogan": "Having no bass player can make your music more exciting"
    },
    { 
      "name": "St Germain - Tourist",
      "year": 2000,
      "image": "http://cps-static.rovicorp.com/3/JPG_500/MI0002/424/MI0002424707.jpg?partner=allrovi.com",
      "producer": "Ludovic Navarre",
      "studio": "Magic House Studio",
      "lat": 48.8961,
      "long": 2.1517,
      "slogan": "A synthesis of electronics with jazz soloing"
    },
    { 
      "name": "Captain Beefheart - Safe as Milk",
      "year": 1967,
      "image": "http://cps-static.rovicorp.com/3/JPG_500/MI0002/500/MI0002500372.jpg?partner=allrovi.com",
      "producer": "Richard Perry",
      "studio": "RCA Studios",
      "lat": 34.0983311,
      "long": -118.3305215,
      "slogan": "Beefheart for the masses"
    },
    { 
      "name": "Primus - Brown Album",
      "year": 1997,
      "image": "http://cps-static.rovicorp.com/3/JPG_500/MI0000/132/MI0000132683.jpg?partner=allrovi.com",
      "producer": "Primus",
      "studio": "Rancho Relaxo",
      "lat": 38.4075,
      "long": -122.948333,
      "slogan": "Kalamazoo is a real place in Michigan"
    },
    { 
      "name": "Tom Waits - Swordfishtrombones",
      "year": 1983,
      "image": "http://cps-static.rovicorp.com/3/JPG_500/MI0001/752/MI0001752888.jpg?partner=allrovi.com",
      "producer": "Tom Waits",
      "studio": "Sunset Sound",
      "lat": 34.0977818,
      "long": -118.3371115,
      "slogan": "Probably the least 80's sounding record from the 80's"
    },
    { 
      "name": "Stooges - Funhouse",
      "year": 1970,
      "image": "http://cps-static.rovicorp.com/3/JPG_500/MI0001/556/MI0001556281.jpg?partner=allrovi.com",
      "producer": "Don Gallucci",
      "studio": "Elektra Sound Recorders",
      "lat": 34.088332,
      "long": -118.378272,
      "slogan": "Stooges at their raw, sweaty, howling peak"
    },
    { 
      "name": "Beastie Boys - Check Your Head",
      "year": 1992,
      "image": "http://cps-static.rovicorp.com/3/JPG_500/MI0000/702/MI0000702878.jpg?partner=allrovi.com",
      "producer": "Mario Caldato, Jr.",
      "studio": "G-Son Studios",
      "lat": 34.116389,
      "long":  -118.256389,
      "slogan": "Better than a sum of its parts"
    },
    { 
      "name": "The Tiger Lillies - Death and the Bible",
      "year": 2004,
      "image": "http://cps-static.rovicorp.com/3/JPG_500/MI0001/539/MI0001539465.jpg?partner=allrovi.com",
      "producer": "Stephan Wulff",
      "studio": "O Ton Studio",
      "lat": 53.5361232,
      "long": 10.0312705,
      "slogan": "Weimar, Brecht, vaudeville, the whole shtick"
    },
    { 
      "name": "Nirvana - In Utero",
      "year": 1993,
      "image": "http://cps-static.rovicorp.com/3/JPG_500/MI0001/700/MI0001700677.jpg?partner=allrovi.com",
      "producer": "Steve Albini",
      "studio": "Pachyderm Studio",
      "lat": 44.506944,
      "long": -92.905556,
      "slogan": "Drum room mics were delayed for 20 milliseconds"
    },
    { 
      "name": "Joy Division - Unknown Pleasures",
      "year": 1979,
      "image": "http://cps-static.rovicorp.com/3/JPG_500/MI0000/019/MI0000019367.jpg?partner=allrovi.com",
      "producer": "Martin Hannett",
      "studio": "Strawberry Studios",
      "lat": 53.4083,
      "long": -2.1494,
      "slogan": "Always better than you remember"
    },
    { 
      "name": "A Tribe Called Quest - The Low End Theory",
      "year": 1991,
      "image": "http://cps-static.rovicorp.com/3/JPG_500/MI0001/719/MI0001719592.jpg?partner=allrovi.com",
      "producer": "Skeff Anselm",
      "studio": "Battery Studios",
      "lat": 40.6971478,
      "long": -74.2605519,
      "slogan": "They sound fresh even when rapping about pagers (telecommunications device that preceded cellphones)"
    },
    { 
      "name": "New Bomb Turks - !!Destroy-Oh-Boy!!",
      "year": 1993,
      "image": "http://cps-static.rovicorp.com/3/JPG_500/MI0000/621/MI0000621692.jpg?partner=allrovi.com",
      "producer": "Mike Mariconda",
      "studio": "Coyote Studios",
      "lat": 40.692778, 
      "long": -73.990278,
      "slogan": "High octane punk 'n' roll (too high on the list if you're not in the mood)"
    },
    { 
      "name": "Majke - Razdor",
      "year": 1993,
      "image": "https://img.discogs.com/V0JfxfDZ3Rd53cVFqktN6DqWTUw=/fit-in/600x600/filters:strip_icc():format(jpeg):mode_rgb():quality(90)/discogs-images/R-1165725-1315848438.jpeg.jpg",
      "producer": "Denis Mujadžić",
      "studio": "Studio Best",
      "lat": 45.8401099,
      "long": 15.823905,
      "slogan": "Cult Croatian Rock band from Vinkovci"
    },
    { 
      "name": "Kendrick Lamar - To Pimp a Butterfly",
      "year": 2015,
      "image": "https://img.discogs.com/9Rbr0OefcjtkvCP4Qc6KtEZKlFM=/fit-in/300x300/filters:strip_icc():format(jpeg):mode_rgb():quality(40)/discogs-images/R-6784584-1426553024-3350.jpeg.jpg",
      "slogan": "Masterpiece"
    },
    { 
      "name": "Ramones - Ramones",
      "year": 1976,
      "image": "http://cps-static.rovicorp.com/3/JPG_500/MI0001/709/MI0001709384.jpg?partner=allrovi.com",
      "producer": "Craig Leon",
      "studio": "Plaza Sound",
      "lat": 40.6971478,
      "long": -74.2605519,
      "slogan": "Divine intervention"
    },
    { 
      "name": "Beck - Odelay",
      "year": 1996,
      "image": "http://cps-static.rovicorp.com/3/JPG_500/MI0001/710/MI0001710803.jpg?partner=allrovi.com",
      "producer": "The Dust Brothers,",
      "studio": "",
      "lat": 34.0201796,
      "long": -118.6926069,
      "slogan": "Vinyl crackling noises were added intentionally"
    },
    { 
      "name": "The Doors - Morrison Hotel",
      "year": 1970,
      "image": "http://cps-static.rovicorp.com/3/JPG_500/MI0002/259/MI0002259917.jpg?partner=allrovi.com",
      "producer": "Paul A. Rothchild",
      "studio": "Elektra Sound Recorders",
      "lat": 34.0885198,
      "long": -118.3786205,
      "slogan": "Rothchild's best record"
    },
    { 
      "name": "LCD Soundsystem - Sound of Silver",
      "year": 2007,
      "image": "http://cps-static.rovicorp.com/3/JPG_500/MI0002/322/MI0002322851.jpg?partner=allrovi.com",
      "producer": "The DFA",
      "studio": "Long View Farm Studios",
      "lat": 42.294476,
      "long": -72.088331,
      "slogan": "Dance-rock for failed hipsters"
    },
    { 
      "name": "Tom Waits - Blue Valentine",
      "year": 1978,
      "image": "http://cps-static.rovicorp.com/3/JPG_500/MI0003/589/MI0003589283.jpg?partner=allrovi.com",
      "producer": "Bones Howe",
      "studio": "Filmways/Heider Recording",
      "lat": 37.783333,
      "long": -122.416667,
      "slogan": "Howe's best record"
    },
    { 
      "name": "The Doors - L.A. Woman",
      "year": 1971,
      "image": "http://cps-static.rovicorp.com/3/JPG_500/MI0001/563/MI0001563708.jpg?partner=allrovi.com",
      "producer": "Bruce Botnick",
      "studio": "The Doors Workshop",
      "lat": 34.0558637,
      "long": -118.4087364,
      "slogan": "Recorded live at their rehearsal space in six days with Elvis's bass player"
    },
    { 
      "name": "The Velvet Underground - The Velvet Underground & Nico",
      "year": 1967,
      "image": "http://cps-static.rovicorp.com/3/JPG_500/MI0000/832/MI0000832128.jpg?partner=allrovi.com",
      "producer": "Tom Wilson",
      "studio": "Scepter Studios",
      "lat": 40.6971478,
      "long": -74.2605519,
      "slogan": "Early copies had a cover with peelable banana"
    },
    { 
      "name": "Rage Against the Machine - Rage Against the Machine",
      "year": 1992,
      "image": "http://cps-static.rovicorp.com/3/JPG_500/MI0001/673/MI0001673839.jpg?partner=allrovi.com",
      "producer": "Garth Richardson",
      "studio": "Sound City",
      "lat": 34.2168605,
      "long": -118.4723689,
      "slogan": "No samples, keyboards or synthesizers were used in the making of this record"
    }
  ]
}
